adres_id; wzs_lat; wzs_lon; stadsdeel; categorie; sttnaam; hsnr; toev; hsltr; aantal_personen; aantal_achternamen; eigenaar; woonfraude; fraude_kans
1; 52.354050; 4.914220; Oost; airbnb; Vrolikstraat; 169; 1; A; 2; 2; stadgenoot; False; 0.1123
2; 52.373450; 4.861260; West; drugs; Joos de Moorstraat; 35; 2; B; 1; 1; eigen haard; True; 0.6432
3; 52.383450; 4.871260; West; prostitutie; Cliffordstraat; 43; 3; C; 1; 1; eigen haard; False; 0.313241
4; 52.363450; 4.851260; West; drugs; Postjeskade; 8; 1; D; 1; 1; eigen haard; True; 0.84321
5; 52.362059; 4.893454; Centrum; woningdelen; Prinsengracht; 604; 2; E; 1; 1; de key; True; 0.9864
6; 52.363959; 4.896454; Centrum Oost; leegstand; Reguliersgracht; 39; 1; G; 1; 1; de key; True; 0.9864
7; 52.363759; 4.899854; Centrum Oost; uitkeringsfraude; Keizersgracht; 709; 4; A; 1; 1; de key; True; 0.9864
8; 52.363259; 4.888454; Centrum; in gebruik zonder huisvestigingsvergunning; Kerkstraat; 5; 1; C; 1; 1; de key; True; 0.9864